[
  {
    "adcode": 110000,
    "name": "北京市",
    "code": "010",
    "children": [
      {
        "adcode": 110100,
        "name": "北京市",
        "code": "010",
        "lng": 116.407526,
        "lat": 39.90403
      }
    ]
  },
  {
    "adcode": 120000,
    "name": "天津市",
    "code": "022",
    "children": [
      {
        "adcode": 120100,
        "name": "天津市",
        "code": "022",
        "lng": 117.200983,
        "lat": 39.084158
      }
    ]
  },
  {
    "adcode": 130000,
    "name": "河北省",
    "code": "",
    "children": [
      {
        "adcode": 130100,
        "name": "石家庄市",
        "code": "0311",
        "lng": 114.514859,
        "lat": 38.042306
      },
      {
        "adcode": 130200,
        "name": "唐山市",
        "code": "0315",
        "lng": 118.180193,
        "lat": 39.630867
      },
      {
        "adcode": 130300,
        "name": "秦皇岛市",
        "code": "0335",
        "lng": 119.600492,
        "lat": 39.935385
      },
      {
        "adcode": 130400,
        "name": "邯郸市",
        "code": "0310",
        "lng": 114.538961,
        "lat": 36.625657
      },
      {
        "adcode": 130500,
        "name": "邢台市",
        "code": "0319",
        "lng": 114.504844,
        "lat": 37.070589
      },
      {
        "adcode": 130600,
        "name": "保定市",
        "code": "0312",
        "lng": 115.464806,
        "lat": 38.873891
      },
      {
        "adcode": 130700,
        "name": "张家口市",
        "code": "0313",
        "lng": 114.887543,
        "lat": 40.824418
      },
      {
        "adcode": 130800,
        "name": "承德市",
        "code": "0314",
        "lng": 117.96241,
        "lat": 40.954071
      },
      {
        "adcode": 130900,
        "name": "沧州市",
        "code": "0317",
        "lng": 116.838834,
        "lat": 38.304477
      },
      {
        "adcode": 131000,
        "name": "廊坊市",
        "code": "0316",
        "lng": 116.683752,
        "lat": 39.538047
      },
      {
        "adcode": 131100,
        "name": "衡水市",
        "code": "0318",
        "lng": 115.670177,
        "lat": 37.73892
      }
    ]
  },
  {
    "adcode": 140000,
    "name": "山西省",
    "code": "",
    "children": [
      {
        "adcode": 140100,
        "name": "太原市",
        "code": "0351",
        "lng": 112.548879,
        "lat": 37.87059
      },
      {
        "adcode": 140200,
        "name": "大同市",
        "code": "0352",
        "lng": 113.300129,
        "lat": 40.076762
      },
      {
        "adcode": 140300,
        "name": "阳泉市",
        "code": "0353",
        "lng": 113.580519,
        "lat": 37.856971
      },
      {
        "adcode": 140400,
        "name": "长治市",
        "code": "0355",
        "lng": 113.116255,
        "lat": 36.195386
      },
      {
        "adcode": 140500,
        "name": "晋城市",
        "code": "0356",
        "lng": 112.851831,
        "lat": 35.490701
      },
      {
        "adcode": 140600,
        "name": "朔州市",
        "code": "0349",
        "lng": 112.432825,
        "lat": 39.331595
      },
      {
        "adcode": 140700,
        "name": "晋中市",
        "code": "0354",
        "lng": 112.752694,
        "lat": 37.687024
      },
      {
        "adcode": 140800,
        "name": "运城市",
        "code": "0359",
        "lng": 111.007528,
        "lat": 35.026412
      },
      {
        "adcode": 140900,
        "name": "忻州市",
        "code": "0350",
        "lng": 112.734174,
        "lat": 38.416663
      },
      {
        "adcode": 141000,
        "name": "临汾市",
        "code": "0357",
        "lng": 111.518976,
        "lat": 36.088005
      },
      {
        "adcode": 141100,
        "name": "吕梁市",
        "code": "0358",
        "lng": 111.144319,
        "lat": 37.518314
      }
    ]
  },
  {
    "adcode": 150000,
    "name": "内蒙古自治区",
    "code": "",
    "children": [
      {
        "adcode": 150100,
        "name": "呼和浩特市",
        "code": "0471",
        "lng": 111.74918,
        "lat": 40.842585
      },
      {
        "adcode": 150200,
        "name": "包头市",
        "code": "0472",
        "lng": 109.840347,
        "lat": 40.657449
      },
      {
        "adcode": 150300,
        "name": "乌海市",
        "code": "0473",
        "lng": 106.794249,
        "lat": 39.655388
      },
      {
        "adcode": 150400,
        "name": "赤峰市",
        "code": "0476",
        "lng": 118.886856,
        "lat": 42.257817
      },
      {
        "adcode": 150500,
        "name": "通辽市",
        "code": "0475",
        "lng": 122.243444,
        "lat": 43.65289
      },
      {
        "adcode": 150600,
        "name": "鄂尔多斯市",
        "code": "0477",
        "lng": 109.781327,
        "lat": 39.608266
      },
      {
        "adcode": 150700,
        "name": "呼伦贝尔市",
        "code": "0470",
        "lng": 119.765744,
        "lat": 49.211574
      },
      {
        "adcode": 150800,
        "name": "巴彦淖尔市",
        "code": "0478",
        "lng": 107.387657,
        "lat": 40.743213
      },
      {
        "adcode": 150900,
        "name": "乌兰察布市",
        "code": "0474",
        "lng": 113.132585,
        "lat": 40.994785
      },
      {
        "adcode": 152200,
        "name": "兴安盟",
        "code": "0482",
        "lng": 122.067042,
        "lat": 46.077561
      },
      {
        "adcode": 152500,
        "name": "锡林郭勒盟",
        "code": "0479",
        "lng": 116.048222,
        "lat": 43.933454
      },
      {
        "adcode": 152900,
        "name": "阿拉善盟",
        "code": "0483",
        "lng": 105.728969,
        "lat": 38.851892
      }
    ]
  },
  {
    "adcode": 210000,
    "name": "辽宁省",
    "code": "",
    "children": [
      {
        "adcode": 210100,
        "name": "沈阳市",
        "code": "024",
        "lng": 123.431474,
        "lat": 41.805698
      },
      {
        "adcode": 210200,
        "name": "大连市",
        "code": "0411",
        "lng": 121.614682,
        "lat": 38.914003
      },
      {
        "adcode": 210300,
        "name": "鞍山市",
        "code": "0412",
        "lng": 122.994329,
        "lat": 41.108647
      },
      {
        "adcode": 210400,
        "name": "抚顺市",
        "code": "0413",
        "lng": 123.957208,
        "lat": 41.880872
      },
      {
        "adcode": 210500,
        "name": "本溪市",
        "code": "0414",
        "lng": 123.766485,
        "lat": 41.294175
      },
      {
        "adcode": 210600,
        "name": "丹东市",
        "code": "0415",
        "lng": 124.354706,
        "lat": 40.000499
      },
      {
        "adcode": 210700,
        "name": "锦州市",
        "code": "0416",
        "lng": 121.127003,
        "lat": 41.095119
      },
      {
        "adcode": 210800,
        "name": "营口市",
        "code": "0417",
        "lng": 122.235417,
        "lat": 40.667012
      },
      {
        "adcode": 210900,
        "name": "阜新市",
        "code": "0418",
        "lng": 121.670323,
        "lat": 42.021619
      },
      {
        "adcode": 211000,
        "name": "辽阳市",
        "code": "0419",
        "lng": 123.236944,
        "lat": 41.267244
      },
      {
        "adcode": 211100,
        "name": "盘锦市",
        "code": "0427",
        "lng": 122.070714,
        "lat": 41.119997
      },
      {
        "adcode": 211200,
        "name": "铁岭市",
        "code": "0410",
        "lng": 123.726166,
        "lat": 42.223769
      },
      {
        "adcode": 211300,
        "name": "朝阳市",
        "code": "0421",
        "lng": 120.450372,
        "lat": 41.573734
      },
      {
        "adcode": 211400,
        "name": "葫芦岛市",
        "code": "0429",
        "lng": 120.836932,
        "lat": 40.711052
      }
    ]
  },
  {
    "adcode": 220000,
    "name": "吉林省",
    "code": "",
    "children": [
      {
        "adcode": 220100,
        "name": "长春市",
        "code": "0431",
        "lng": 125.323544,
        "lat": 43.817071
      },
      {
        "adcode": 220200,
        "name": "吉林市",
        "code": "0432",
        "lng": 126.549576,
        "lat": 43.837883
      },
      {
        "adcode": 220300,
        "name": "四平市",
        "code": "0434",
        "lng": 124.350398,
        "lat": 43.166419
      },
      {
        "adcode": 220400,
        "name": "辽源市",
        "code": "0437",
        "lng": 125.143532,
        "lat": 42.887918
      },
      {
        "adcode": 220500,
        "name": "通化市",
        "code": "0435",
        "lng": 125.939697,
        "lat": 41.728401
      },
      {
        "adcode": 220600,
        "name": "白山市",
        "code": "0439",
        "lng": 126.423587,
        "lat": 41.939994
      },
      {
        "adcode": 220700,
        "name": "松原市",
        "code": "0438",
        "lng": 124.825117,
        "lat": 45.141789
      },
      {
        "adcode": 220800,
        "name": "白城市",
        "code": "0436",
        "lng": 122.839024,
        "lat": 45.619641
      },
      {
        "adcode": 222400,
        "name": "延边朝鲜族自治州",
        "code": "1433",
        "lng": 129.508946,
        "lat": 42.891253
      }
    ]
  },
  {
    "adcode": 230000,
    "name": "黑龙江省",
    "code": "",
    "children": [
      {
        "adcode": 230100,
        "name": "哈尔滨市",
        "code": "0451",
        "lng": 126.534967,
        "lat": 45.803775
      },
      {
        "adcode": 230200,
        "name": "齐齐哈尔市",
        "code": "0452",
        "lng": 123.918186,
        "lat": 47.354348
      },
      {
        "adcode": 230300,
        "name": "鸡西市",
        "code": "0467",
        "lng": 130.969333,
        "lat": 45.295075
      },
      {
        "adcode": 230400,
        "name": "鹤岗市",
        "code": "0468",
        "lng": 130.297964,
        "lat": 47.349916
      },
      {
        "adcode": 230500,
        "name": "双鸭山市",
        "code": "0469",
        "lng": 131.159133,
        "lat": 46.646508
      },
      {
        "adcode": 230600,
        "name": "大庆市",
        "code": "0459",
        "lng": 125.103784,
        "lat": 46.589309
      },
      {
        "adcode": 230700,
        "name": "伊春市",
        "code": "0458",
        "lng": 128.841147,
        "lat": 47.727536
      },
      {
        "adcode": 230800,
        "name": "佳木斯市",
        "code": "0454",
        "lng": 130.318917,
        "lat": 46.799922
      },
      {
        "adcode": 230900,
        "name": "七台河市",
        "code": "0464",
        "lng": 131.003138,
        "lat": 45.771726
      },
      {
        "adcode": 231000,
        "name": "牡丹江市",
        "code": "0453",
        "lng": 129.633168,
        "lat": 44.551653
      },
      {
        "adcode": 231100,
        "name": "黑河市",
        "code": "0456",
        "lng": 127.52856,
        "lat": 50.245329
      },
      {
        "adcode": 231200,
        "name": "绥化市",
        "code": "0455",
        "lng": 126.968887,
        "lat": 46.653845
      },
      {
        "adcode": 232700,
        "name": "大兴安岭地区",
        "code": "0457",
        "lng": 124.71108,
        "lat": 52.335206
      }
    ]
  },
  {
    "adcode": 310000,
    "name": "上海市",
    "code": "021",
    "children": [
      {
        "adcode": 310100,
        "name": "上海市",
        "code": "021",
        "lng": 121.473701,
        "lat": 31.230416
      }
    ]
  },
  {
    "adcode": 320000,
    "name": "江苏省",
    "code": "",
    "children": [
      {
        "adcode": 320100,
        "name": "南京市",
        "code": "025",
        "lng": 118.796877,
        "lat": 32.060255
      },
      {
        "adcode": 320200,
        "name": "无锡市",
        "code": "0510",
        "lng": 120.31191,
        "lat": 31.491169
      },
      {
        "adcode": 320300,
        "name": "徐州市",
        "code": "0516",
        "lng": 117.284124,
        "lat": 34.205768
      },
      {
        "adcode": 320400,
        "name": "常州市",
        "code": "0519",
        "lng": 119.973987,
        "lat": 31.810689
      },
      {
        "adcode": 320500,
        "name": "苏州市",
        "code": "0512",
        "lng": 120.585315,
        "lat": 31.298886
      },
      {
        "adcode": 320600,
        "name": "南通市",
        "code": "0513",
        "lng": 120.894291,
        "lat": 31.980171
      },
      {
        "adcode": 320700,
        "name": "连云港市",
        "code": "0518",
        "lng": 119.221611,
        "lat": 34.596653
      },
      {
        "adcode": 320800,
        "name": "淮安市",
        "code": "0517",
        "lng": 119.015285,
        "lat": 33.610353
      },
      {
        "adcode": 320900,
        "name": "盐城市",
        "code": "0515",
        "lng": 120.163561,
        "lat": 33.347382
      },
      {
        "adcode": 321000,
        "name": "扬州市",
        "code": "0514",
        "lng": 119.412966,
        "lat": 32.39421
      },
      {
        "adcode": 321100,
        "name": "镇江市",
        "code": "0511",
        "lng": 119.425836,
        "lat": 32.187849
      },
      {
        "adcode": 321200,
        "name": "泰州市",
        "code": "0523",
        "lng": 119.923116,
        "lat": 32.455778
      },
      {
        "adcode": 321300,
        "name": "宿迁市",
        "code": "0527",
        "lng": 118.275198,
        "lat": 33.963232
      }
    ]
  },
  {
    "adcode": 330000,
    "name": "浙江省",
    "code": "",
    "children": [
      {
        "adcode": 330100,
        "name": "杭州市",
        "code": "0571",
        "lng": 120.15507,
        "lat": 30.274084
      },
      {
        "adcode": 330200,
        "name": "宁波市",
        "code": "0574",
        "lng": 121.550357,
        "lat": 29.874556
      },
      {
        "adcode": 330300,
        "name": "温州市",
        "code": "0577",
        "lng": 120.699366,
        "lat": 27.994267
      },
      {
        "adcode": 330400,
        "name": "嘉兴市",
        "code": "0573",
        "lng": 120.755486,
        "lat": 30.746129
      },
      {
        "adcode": 330500,
        "name": "湖州市",
        "code": "0572",
        "lng": 120.086823,
        "lat": 30.894348
      },
      {
        "adcode": 330600,
        "name": "绍兴市",
        "code": "0575",
        "lng": 120.580232,
        "lat": 30.029752
      },
      {
        "adcode": 330700,
        "name": "金华市",
        "code": "0579",
        "lng": 119.647444,
        "lat": 29.079059
      },
      {
        "adcode": 330800,
        "name": "衢州市",
        "code": "0570",
        "lng": 118.859457,
        "lat": 28.970079
      },
      {
        "adcode": 330900,
        "name": "舟山市",
        "code": "0580",
        "lng": 122.207215,
        "lat": 29.985295
      },
      {
        "adcode": 331000,
        "name": "台州市",
        "code": "0576",
        "lng": 121.420757,
        "lat": 28.656386
      },
      {
        "adcode": 331100,
        "name": "丽水市",
        "code": "0578",
        "lng": 119.922796,
        "lat": 28.46763
      }
    ]
  },
  {
    "adcode": 340000,
    "name": "安徽省",
    "code": "",
    "children": [
      {
        "adcode": 340100,
        "name": "合肥市",
        "code": "0551",
        "lng": 117.227239,
        "lat": 31.820586
      },
      {
        "adcode": 340200,
        "name": "芜湖市",
        "code": "0553",
        "lng": 118.432941,
        "lat": 31.352859
      },
      {
        "adcode": 340300,
        "name": "蚌埠市",
        "code": "0552",
        "lng": 117.389719,
        "lat": 32.916287
      },
      {
        "adcode": 340400,
        "name": "淮南市",
        "code": "0554",
        "lng": 116.999932,
        "lat": 32.625478
      },
      {
        "adcode": 340500,
        "name": "马鞍山市",
        "code": "0555",
        "lng": 118.506759,
        "lat": 31.670452
      },
      {
        "adcode": 340600,
        "name": "淮北市",
        "code": "0561",
        "lng": 116.798265,
        "lat": 33.955844
      },
      {
        "adcode": 340700,
        "name": "铜陵市",
        "code": "0562",
        "lng": 117.812079,
        "lat": 30.945429
      },
      {
        "adcode": 340800,
        "name": "安庆市",
        "code": "0556",
        "lng": 117.063754,
        "lat": 30.543494
      },
      {
        "adcode": 341000,
        "name": "黄山市",
        "code": "0559",
        "lng": 118.337481,
        "lat": 29.714655
      },
      {
        "adcode": 341100,
        "name": "滁州市",
        "code": "0550",
        "lng": 118.317106,
        "lat": 32.301556
      },
      {
        "adcode": 341200,
        "name": "阜阳市",
        "code": "1558",
        "lng": 115.814204,
        "lat": 32.890124
      },
      {
        "adcode": 341300,
        "name": "宿州市",
        "code": "0557",
        "lng": 116.964356,
        "lat": 33.646373
      },
      {
        "adcode": 341500,
        "name": "六安市",
        "code": "0564",
        "lng": 116.521854,
        "lat": 31.733699
      },
      {
        "adcode": 341600,
        "name": "亳州市",
        "code": "0558",
        "lng": 115.778676,
        "lat": 33.844582
      },
      {
        "adcode": 341700,
        "name": "池州市",
        "code": "0566",
        "lng": 117.491568,
        "lat": 30.6648
      },
      {
        "adcode": 341800,
        "name": "宣城市",
        "code": "0563",
        "lng": 118.758816,
        "lat": 30.940718
      }
    ]
  },
  {
    "adcode": 350000,
    "name": "福建省",
    "code": "",
    "children": [
      {
        "adcode": 350100,
        "name": "福州市",
        "code": "0591",
        "lng": 119.296494,
        "lat": 26.074507
      },
      {
        "adcode": 350200,
        "name": "厦门市",
        "code": "0592",
        "lng": 118.089425,
        "lat": 24.479833
      },
      {
        "adcode": 350300,
        "name": "莆田市",
        "code": "0594",
        "lng": 119.007777,
        "lat": 25.454084
      },
      {
        "adcode": 350400,
        "name": "三明市",
        "code": "0598",
        "lng": 117.638678,
        "lat": 26.263406
      },
      {
        "adcode": 350500,
        "name": "泉州市",
        "code": "0595",
        "lng": 118.675675,
        "lat": 24.874132
      },
      {
        "adcode": 350600,
        "name": "漳州市",
        "code": "0596",
        "lng": 117.647481,
        "lat": 24.512948
      },
      {
        "adcode": 350700,
        "name": "南平市",
        "code": "0599",
        "lng": 118.081325,
        "lat": 27.382829
      },
      {
        "adcode": 350800,
        "name": "龙岩市",
        "code": "0597",
        "lng": 117.017536,
        "lat": 25.075123
      },
      {
        "adcode": 350900,
        "name": "宁德市",
        "code": "0593",
        "lng": 119.547932,
        "lat": 26.665617
      }
    ]
  },
  {
    "adcode": 360000,
    "name": "江西省",
    "code": "",
    "children": [
      {
        "adcode": 360100,
        "name": "南昌市",
        "code": "0791",
        "lng": 115.858197,
        "lat": 28.682892
      },
      {
        "adcode": 360200,
        "name": "景德镇市",
        "code": "0798",
        "lng": 117.178419,
        "lat": 29.268835
      },
      {
        "adcode": 360300,
        "name": "萍乡市",
        "code": "0799",
        "lng": 113.854556,
        "lat": 27.622768
      },
      {
        "adcode": 360400,
        "name": "九江市",
        "code": "0792",
        "lng": 116.00193,
        "lat": 29.705077
      },
      {
        "adcode": 360500,
        "name": "新余市",
        "code": "0790",
        "lng": 114.917346,
        "lat": 27.817808
      },
      {
        "adcode": 360600,
        "name": "鹰潭市",
        "code": "0701",
        "lng": 117.069202,
        "lat": 28.260189
      },
      {
        "adcode": 360700,
        "name": "赣州市",
        "code": "0797",
        "lng": 114.935029,
        "lat": 25.831829
      },
      {
        "adcode": 360800,
        "name": "吉安市",
        "code": "0796",
        "lng": 114.992509,
        "lat": 27.113443
      },
      {
        "adcode": 360900,
        "name": "宜春市",
        "code": "0795",
        "lng": 114.416778,
        "lat": 27.815619
      },
      {
        "adcode": 361000,
        "name": "抚州市",
        "code": "0794",
        "lng": 116.358181,
        "lat": 27.949217
      },
      {
        "adcode": 361100,
        "name": "上饶市",
        "code": "0793",
        "lng": 117.943433,
        "lat": 28.454863
      }
    ]
  },
  {
    "adcode": 370000,
    "name": "山东省",
    "code": "",
    "children": [
      {
        "adcode": 370100,
        "name": "济南市",
        "code": "0531",
        "lng": 117.119999,
        "lat": 36.651216
      },
      {
        "adcode": 370200,
        "name": "青岛市",
        "code": "0532",
        "lng": 120.382639,
        "lat": 36.067082
      },
      {
        "adcode": 370300,
        "name": "淄博市",
        "code": "0533",
        "lng": 118.054927,
        "lat": 36.813487
      },
      {
        "adcode": 370400,
        "name": "枣庄市",
        "code": "0632",
        "lng": 117.323725,
        "lat": 34.810487
      },
      {
        "adcode": 370500,
        "name": "东营市",
        "code": "0546",
        "lng": 118.674767,
        "lat": 37.434751
      },
      {
        "adcode": 370600,
        "name": "烟台市",
        "code": "0535",
        "lng": 121.447935,
        "lat": 37.463822
      },
      {
        "adcode": 370700,
        "name": "潍坊市",
        "code": "0536",
        "lng": 119.161755,
        "lat": 36.706774
      },
      {
        "adcode": 370800,
        "name": "济宁市",
        "code": "0537",
        "lng": 116.587098,
        "lat": 35.414921
      },
      {
        "adcode": 370900,
        "name": "泰安市",
        "code": "0538",
        "lng": 117.087614,
        "lat": 36.200252
      },
      {
        "adcode": 371000,
        "name": "威海市",
        "code": "0631",
        "lng": 122.120419,
        "lat": 37.513068
      },
      {
        "adcode": 371100,
        "name": "日照市",
        "code": "0633",
        "lng": 119.526888,
        "lat": 35.416377
      },
      {
        "adcode": 371300,
        "name": "临沂市",
        "code": "0539",
        "lng": 118.356448,
        "lat": 35.104672
      },
      {
        "adcode": 371400,
        "name": "德州市",
        "code": "0534",
        "lng": 116.357464,
        "lat": 37.434092
      },
      {
        "adcode": 371500,
        "name": "聊城市",
        "code": "0635",
        "lng": 115.985371,
        "lat": 36.456703
      },
      {
        "adcode": 371600,
        "name": "滨州市",
        "code": "0543",
        "lng": 117.970703,
        "lat": 37.38199
      },
      {
        "adcode": 371700,
        "name": "菏泽市",
        "code": "0530",
        "lng": 115.480656,
        "lat": 35.23375
      }
    ]
  },
  {
    "adcode": 410000,
    "name": "河南省",
    "code": "",
    "children": [
      {
        "adcode": 410100,
        "name": "郑州市",
        "code": "0371",
        "lng": 113.625368,
        "lat": 34.746599
      },
      {
        "adcode": 410200,
        "name": "开封市",
        "code": "0378",
        "lng": 114.307581,
        "lat": 34.797239
      },
      {
        "adcode": 410300,
        "name": "洛阳市",
        "code": "0379",
        "lng": 112.45404,
        "lat": 34.619682
      },
      {
        "adcode": 410400,
        "name": "平顶山市",
        "code": "0375",
        "lng": 113.192661,
        "lat": 33.766169
      },
      {
        "adcode": 410500,
        "name": "安阳市",
        "code": "0372",
        "lng": 114.392392,
        "lat": 36.097577
      },
      {
        "adcode": 410600,
        "name": "鹤壁市",
        "code": "0392",
        "lng": 114.297272,
        "lat": 35.747225
      },
      {
        "adcode": 410700,
        "name": "新乡市",
        "code": "0373",
        "lng": 113.9268,
        "lat": 35.303004
      },
      {
        "adcode": 410800,
        "name": "焦作市",
        "code": "0391",
        "lng": 113.241823,
        "lat": 35.215892
      },
      {
        "adcode": 410900,
        "name": "濮阳市",
        "code": "0393",
        "lng": 115.029215,
        "lat": 35.761829
      },
      {
        "adcode": 411000,
        "name": "许昌市",
        "code": "0374",
        "lng": 113.85264,
        "lat": 34.035506
      },
      {
        "adcode": 411100,
        "name": "漯河市",
        "code": "0395",
        "lng": 114.016539,
        "lat": 33.581412
      },
      {
        "adcode": 411200,
        "name": "三门峡市",
        "code": "0398",
        "lng": 111.200135,
        "lat": 34.772493
      },
      {
        "adcode": 411300,
        "name": "南阳市",
        "code": "0377",
        "lng": 112.528321,
        "lat": 32.990833
      },
      {
        "adcode": 411400,
        "name": "商丘市",
        "code": "0370",
        "lng": 115.65637,
        "lat": 34.414172
      },
      {
        "adcode": 411500,
        "name": "信阳市",
        "code": "0376",
        "lng": 114.091023,
        "lat": 32.146983
      },
      {
        "adcode": 411600,
        "name": "周口市",
        "code": "0394",
        "lng": 114.696951,
        "lat": 33.626149
      },
      {
        "adcode": 411700,
        "name": "驻马店市",
        "code": "0396",
        "lng": 114.022298,
        "lat": 33.011529
      }
    ]
  },
  {
    "adcode": 420000,
    "name": "湖北省",
    "code": "",
    "children": [
      {
        "adcode": 420100,
        "name": "武汉市",
        "code": "027",
        "lng": 114.305392,
        "lat": 30.593098
      },
      {
        "adcode": 420200,
        "name": "黄石市",
        "code": "0714",
        "lng": 115.03852,
        "lat": 30.199652
      },
      {
        "adcode": 420300,
        "name": "十堰市",
        "code": "0719",
        "lng": 110.79799,
        "lat": 32.629397
      },
      {
        "adcode": 420500,
        "name": "宜昌市",
        "code": "0717",
        "lng": 111.286471,
        "lat": 30.691967
      },
      {
        "adcode": 420600,
        "name": "襄阳市",
        "code": "0710",
        "lng": 112.122414,
        "lat": 32.008986
      },
      {
        "adcode": 420700,
        "name": "鄂州市",
        "code": "0711",
        "lng": 114.894843,
        "lat": 30.39194
      },
      {
        "adcode": 420800,
        "name": "荆门市",
        "code": "0724",
        "lng": 112.199265,
        "lat": 31.035423
      },
      {
        "adcode": 420900,
        "name": "孝感市",
        "code": "0712",
        "lng": 113.916902,
        "lat": 30.924568
      },
      {
        "adcode": 421000,
        "name": "荆州市",
        "code": "0716",
        "lng": 112.239741,
        "lat": 30.335165
      },
      {
        "adcode": 421100,
        "name": "黄冈市",
        "code": "0713",
        "lng": 114.872316,
        "lat": 30.453905
      },
      {
        "adcode": 421200,
        "name": "咸宁市",
        "code": "0715",
        "lng": 114.322492,
        "lat": 29.841443
      },
      {
        "adcode": 421300,
        "name": "随州市",
        "code": "0722",
        "lng": 113.382458,
        "lat": 31.690215
      },
      {
        "adcode": 422800,
        "name": "恩施土家族苗族自治州",
        "code": "0718",
        "lng": 109.488172,
        "lat": 30.272156
      }
    ]
  },
  {
    "adcode": 430000,
    "name": "湖南省",
    "code": "",
    "children": [
      {
        "adcode": 430100,
        "name": "长沙市",
        "code": "0731",
        "lng": 112.938814,
        "lat": 28.228209
      },
      {
        "adcode": 430200,
        "name": "株洲市",
        "code": "0733",
        "lng": 113.134002,
        "lat": 27.82755
      },
      {
        "adcode": 430300,
        "name": "湘潭市",
        "code": "0732",
        "lng": 112.944049,
        "lat": 27.829738
      },
      {
        "adcode": 430400,
        "name": "衡阳市",
        "code": "0734",
        "lng": 112.571997,
        "lat": 26.89323
      },
      {
        "adcode": 430500,
        "name": "邵阳市",
        "code": "0739",
        "lng": 111.467791,
        "lat": 27.238892
      },
      {
        "adcode": 430600,
        "name": "岳阳市",
        "code": "0730",
        "lng": 113.128958,
        "lat": 29.357104
      },
      {
        "adcode": 430700,
        "name": "常德市",
        "code": "0736",
        "lng": 111.698497,
        "lat": 29.031673
      },
      {
        "adcode": 430800,
        "name": "张家界市",
        "code": "0744",
        "lng": 110.479191,
        "lat": 29.117096
      },
      {
        "adcode": 430900,
        "name": "益阳市",
        "code": "0737",
        "lng": 112.35518,
        "lat": 28.55386
      },
      {
        "adcode": 431000,
        "name": "郴州市",
        "code": "0735",
        "lng": 113.014717,
        "lat": 25.770509
      },
      {
        "adcode": 431100,
        "name": "永州市",
        "code": "0746",
        "lng": 111.613445,
        "lat": 26.420394
      },
      {
        "adcode": 431200,
        "name": "怀化市",
        "code": "0745",
        "lng": 109.998488,
        "lat": 27.554978
      },
      {
        "adcode": 431300,
        "name": "娄底市",
        "code": "0738",
        "lng": 111.993497,
        "lat": 27.700062
      },
      {
        "adcode": 433100,
        "name": "湘西土家族苗族自治州",
        "code": "0743",
        "lng": 109.739172,
        "lat": 28.311947
      }
    ]
  },
  {
    "adcode": 440000,
    "name": "广东省",
    "code": "",
    "children": [
      {
        "adcode": 440100,
        "name": "广州市",
        "code": "020",
        "lng": 113.264434,
        "lat": 23.129162
      },
      {
        "adcode": 440200,
        "name": "韶关市",
        "code": "0751",
        "lng": 113.597522,
        "lat": 24.810403
      },
      {
        "adcode": 440300,
        "name": "深圳市",
        "code": "0755",
        "lng": 114.057868,
        "lat": 22.543099
      },
      {
        "adcode": 440400,
        "name": "珠海市",
        "code": "0756",
        "lng": 113.576726,
        "lat": 22.270715
      },
      {
        "adcode": 440500,
        "name": "汕头市",
        "code": "0754",
        "lng": 116.681972,
        "lat": 23.354091
      },
      {
        "adcode": 440600,
        "name": "佛山市",
        "code": "0757",
        "lng": 113.121416,
        "lat": 23.021548
      },
      {
        "adcode": 440700,
        "name": "江门市",
        "code": "0750",
        "lng": 113.081901,
        "lat": 22.578738
      },
      {
        "adcode": 440800,
        "name": "湛江市",
        "code": "0759",
        "lng": 110.359377,
        "lat": 21.270707
      },
      {
        "adcode": 440900,
        "name": "茂名市",
        "code": "0668",
        "lng": 110.925456,
        "lat": 21.662999
      },
      {
        "adcode": 441200,
        "name": "肇庆市",
        "code": "0758",
        "lng": 112.465091,
        "lat": 23.047191
      },
      {
        "adcode": 441300,
        "name": "惠州市",
        "code": "0752",
        "lng": 114.416196,
        "lat": 23.111847
      },
      {
        "adcode": 441400,
        "name": "梅州市",
        "code": "0753",
        "lng": 116.122238,
        "lat": 24.288615
      },
      {
        "adcode": 441500,
        "name": "汕尾市",
        "code": "0660",
        "lng": 115.375278,
        "lat": 22.786211
      },
      {
        "adcode": 441600,
        "name": "河源市",
        "code": "0762",
        "lng": 114.700447,
        "lat": 23.743538
      },
      {
        "adcode": 441700,
        "name": "阳江市",
        "code": "0662",
        "lng": 111.982232,
        "lat": 21.857958
      },
      {
        "adcode": 441800,
        "name": "清远市",
        "code": "0763",
        "lng": 113.056031,
        "lat": 23.681763
      },
      {
        "adcode": 441900,
        "name": "东莞市",
        "code": "0769",
        "lng": 113.751765,
        "lat": 23.020536
      },
      {
        "adcode": 442000,
        "name": "中山市",
        "code": "0760",
        "lng": 113.392782,
        "lat": 22.517645
      },
      {
        "adcode": 445100,
        "name": "潮州市",
        "code": "0768",
        "lng": 116.622603,
        "lat": 23.65695
      },
      {
        "adcode": 445200,
        "name": "揭阳市",
        "code": "0663",
        "lng": 116.372831,
        "lat": 23.549993
      },
      {
        "adcode": 445300,
        "name": "云浮市",
        "code": "0766",
        "lng": 112.044491,
        "lat": 22.915094
      }
    ]
  },
  {
    "adcode": 450000,
    "name": "广西壮族自治区",
    "code": "",
    "children": [
      {
        "adcode": 450100,
        "name": "南宁市",
        "code": "0771",
        "lng": 108.366543,
        "lat": 22.817002
      },
      {
        "adcode": 450200,
        "name": "柳州市",
        "code": "0772",
        "lng": 109.415953,
        "lat": 24.325502
      },
      {
        "adcode": 450300,
        "name": "桂林市",
        "code": "0773",
        "lng": 110.290194,
        "lat": 25.273566
      },
      {
        "adcode": 450400,
        "name": "梧州市",
        "code": "0774",
        "lng": 111.279115,
        "lat": 23.476962
      },
      {
        "adcode": 450500,
        "name": "北海市",
        "code": "0779",
        "lng": 109.119927,
        "lat": 21.481254
      },
      {
        "adcode": 450600,
        "name": "防城港市",
        "code": "0770",
        "lng": 108.353846,
        "lat": 21.68686
      },
      {
        "adcode": 450700,
        "name": "钦州市",
        "code": "0777",
        "lng": 108.654146,
        "lat": 21.979933
      },
      {
        "adcode": 450800,
        "name": "贵港市",
        "code": "1755",
        "lng": 109.598926,
        "lat": 23.11153
      },
      {
        "adcode": 450900,
        "name": "玉林市",
        "code": "0775",
        "lng": 110.164756,
        "lat": 22.636379
      },
      {
        "adcode": 451000,
        "name": "百色市",
        "code": "0776",
        "lng": 106.618201,
        "lat": 23.902333
      },
      {
        "adcode": 451100,
        "name": "贺州市",
        "code": "1774",
        "lng": 111.566694,
        "lat": 24.403582
      },
      {
        "adcode": 451200,
        "name": "河池市",
        "code": "0778",
        "lng": 108.085261,
        "lat": 24.692931
      },
      {
        "adcode": 451300,
        "name": "来宾市",
        "code": "1772",
        "lng": 109.221465,
        "lat": 23.750306
      },
      {
        "adcode": 451400,
        "name": "崇左市",
        "code": "1771",
        "lng": 107.364711,
        "lat": 22.376532
      }
    ]
  },
  {
    "adcode": 460000,
    "name": "海南省",
    "code": "",
    "children": [
      {
        "adcode": 460100,
        "name": "海口市",
        "code": "0898",
        "lng": 110.198293,
        "lat": 20.044001
      },
      {
        "adcode": 460200,
        "name": "三亚市",
        "code": "0899",
        "lng": 109.511909,
        "lat": 18.252847
      },
      {
        "adcode": 460300,
        "name": "三沙市",
        "code": "2898",
        "lng": 112.338695,
        "lat": 16.831839
      },
      {
        "adcode": 460400,
        "name": "儋州市",
        "code": "0805",
        "lng": 109.580811,
        "lat": 19.521134
      }
    ]
  },
  {
    "adcode": 500000,
    "name": "重庆市",
    "code": "023",
    "children": [
      {
        "adcode": 500100,
        "name": "重庆市",
        "code": "023",
        "lng": 106.551556,
        "lat": 29.563009
      }
    ]
  },
  {
    "adcode": 510000,
    "name": "四川省",
    "code": "",
    "children": [
      {
        "adcode": 510100,
        "name": "成都市",
        "code": "028",
        "lng": 104.066541,
        "lat": 30.572269
      },
      {
        "adcode": 510300,
        "name": "自贡市",
        "code": "0813",
        "lng": 104.778442,
        "lat": 29.33903
      },
      {
        "adcode": 510400,
        "name": "攀枝花市",
        "code": "0812",
        "lng": 101.718637,
        "lat": 26.582347
      },
      {
        "adcode": 510500,
        "name": "泸州市",
        "code": "0830",
        "lng": 105.442258,
        "lat": 28.871811
      },
      {
        "adcode": 510600,
        "name": "德阳市",
        "code": "0838",
        "lng": 104.397894,
        "lat": 31.126855
      },
      {
        "adcode": 510700,
        "name": "绵阳市",
        "code": "0816",
        "lng": 104.679114,
        "lat": 31.46745
      },
      {
        "adcode": 510800,
        "name": "广元市",
        "code": "0839",
        "lng": 105.843357,
        "lat": 32.435435
      },
      {
        "adcode": 510900,
        "name": "遂宁市",
        "code": "0825",
        "lng": 105.592898,
        "lat": 30.532847
      },
      {
        "adcode": 511000,
        "name": "内江市",
        "code": "1832",
        "lng": 105.058433,
        "lat": 29.580228
      },
      {
        "adcode": 511100,
        "name": "乐山市",
        "code": "0833",
        "lng": 103.765568,
        "lat": 29.552106
      },
      {
        "adcode": 511300,
        "name": "南充市",
        "code": "0817",
        "lng": 106.110698,
        "lat": 30.837793
      },
      {
        "adcode": 511400,
        "name": "眉山市",
        "code": "1833",
        "lng": 103.848538,
        "lat": 30.075439
      },
      {
        "adcode": 511500,
        "name": "宜宾市",
        "code": "0831",
        "lng": 104.643215,
        "lat": 28.751768
      },
      {
        "adcode": 511600,
        "name": "广安市",
        "code": "0826",
        "lng": 106.633212,
        "lat": 30.455961
      },
      {
        "adcode": 511700,
        "name": "达州市",
        "code": "0818",
        "lng": 107.468023,
        "lat": 31.209571
      },
      {
        "adcode": 511800,
        "name": "雅安市",
        "code": "0835",
        "lng": 103.013261,
        "lat": 29.980537
      },
      {
        "adcode": 511900,
        "name": "巴中市",
        "code": "0827",
        "lng": 106.747477,
        "lat": 31.867903
      },
      {
        "adcode": 512000,
        "name": "资阳市",
        "code": "0832",
        "lng": 104.627636,
        "lat": 30.128901
      },
      {
        "adcode": 513200,
        "name": "阿坝藏族羌族自治州",
        "code": "0837",
        "lng": 102.224653,
        "lat": 31.899413
      },
      {
        "adcode": 513300,
        "name": "甘孜藏族自治州",
        "code": "0836",
        "lng": 101.96231,
        "lat": 30.04952
      },
      {
        "adcode": 513400,
        "name": "凉山彝族自治州",
        "code": "0834",
        "lng": 102.267335,
        "lat": 27.88161
      }
    ]
  },
  {
    "adcode": 520000,
    "name": "贵州省",
    "code": "",
    "children": [
      {
        "adcode": 520100,
        "name": "贵阳市",
        "code": "0851",
        "lng": 106.630153,
        "lat": 26.647661
      },
      {
        "adcode": 520200,
        "name": "六盘水市",
        "code": "0858",
        "lng": 104.830359,
        "lat": 26.592666
      },
      {
        "adcode": 520300,
        "name": "遵义市",
        "code": "0852",
        "lng": 106.927389,
        "lat": 27.725654
      },
      {
        "adcode": 520400,
        "name": "安顺市",
        "code": "0853",
        "lng": 105.947593,
        "lat": 26.253072
      },
      {
        "adcode": 520500,
        "name": "毕节市",
        "code": "0857",
        "lng": 105.283992,
        "lat": 27.302589
      },
      {
        "adcode": 520600,
        "name": "铜仁市",
        "code": "0856",
        "lng": 109.189598,
        "lat": 27.731514
      },
      {
        "adcode": 522300,
        "name": "黔西南布依族苗族自治州",
        "code": "0859",
        "lng": 104.906396,
        "lat": 25.087825
      },
      {
        "adcode": 522600,
        "name": "黔东南苗族侗族自治州",
        "code": "0855",
        "lng": 107.982859,
        "lat": 26.583442
      },
      {
        "adcode": 522700,
        "name": "黔南布依族苗族自治州",
        "code": "0854",
        "lng": 107.522097,
        "lat": 26.254092
      }
    ]
  },
  {
    "adcode": 530000,
    "name": "云南省",
    "code": "",
    "children": [
      {
        "adcode": 530100,
        "name": "昆明市",
        "code": "0871",
        "lng": 102.832891,
        "lat": 24.880095
      },
      {
        "adcode": 530300,
        "name": "曲靖市",
        "code": "0874",
        "lng": 103.796167,
        "lat": 25.489999
      },
      {
        "adcode": 530400,
        "name": "玉溪市",
        "code": "0877",
        "lng": 102.546543,
        "lat": 24.352036
      },
      {
        "adcode": 530500,
        "name": "保山市",
        "code": "0875",
        "lng": 99.161761,
        "lat": 25.112046
      },
      {
        "adcode": 530600,
        "name": "昭通市",
        "code": "0870",
        "lng": 103.717465,
        "lat": 27.338257
      },
      {
        "adcode": 530700,
        "name": "丽江市",
        "code": "0888",
        "lng": 100.22775,
        "lat": 26.855047
      },
      {
        "adcode": 530800,
        "name": "普洱市",
        "code": "0879",
        "lng": 100.966512,
        "lat": 22.825065
      },
      {
        "adcode": 530900,
        "name": "临沧市",
        "code": "0883",
        "lng": 100.079583,
        "lat": 23.877573
      },
      {
        "adcode": 532300,
        "name": "楚雄彝族自治州",
        "code": "0878",
        "lng": 101.528068,
        "lat": 25.045532
      },
      {
        "adcode": 532500,
        "name": "红河哈尼族彝族自治州",
        "code": "0873",
        "lng": 103.374799,
        "lat": 23.36313
      },
      {
        "adcode": 532600,
        "name": "文山壮族苗族自治州",
        "code": "0876",
        "lng": 104.216248,
        "lat": 23.400733
      },
      {
        "adcode": 532800,
        "name": "西双版纳傣族自治州",
        "code": "0691",
        "lng": 100.797777,
        "lat": 22.007351
      },
      {
        "adcode": 532900,
        "name": "大理白族自治州",
        "code": "0872",
        "lng": 100.267638,
        "lat": 25.606486
      },
      {
        "adcode": 533100,
        "name": "德宏傣族景颇族自治州",
        "code": "0692",
        "lng": 98.584895,
        "lat": 24.433353
      },
      {
        "adcode": 533300,
        "name": "怒江傈僳族自治州",
        "code": "0886",
        "lng": 98.853097,
        "lat": 25.852547
      },
      {
        "adcode": 533400,
        "name": "迪庆藏族自治州",
        "code": "0887",
        "lng": 99.702234,
        "lat": 27.818882
      }
    ]
  },
  {
    "adcode": 540000,
    "name": "西藏自治区",
    "code": "",
    "children": [
      {
        "adcode": 540100,
        "name": "拉萨市",
        "code": "0891",
        "lng": 91.140856,
        "lat": 29.645554
      },
      {
        "adcode": 540200,
        "name": "日喀则市",
        "code": "0892",
        "lng": 88.880583,
        "lat": 29.266869
      },
      {
        "adcode": 540300,
        "name": "昌都市",
        "code": "0895",
        "lng": 97.17202,
        "lat": 31.140969
      },
      {
        "adcode": 540400,
        "name": "林芝市",
        "code": "0894",
        "lng": 94.361558,
        "lat": 29.648943
      },
      {
        "adcode": 540500,
        "name": "山南市",
        "code": "0893",
        "lng": 91.773134,
        "lat": 29.237137
      },
      {
        "adcode": 540600,
        "name": "那曲市",
        "code": "0896",
        "lng": 92.05151,
        "lat": 31.477905
      },
      {
        "adcode": 542500,
        "name": "阿里地区",
        "code": "0897",
        "lng": 80.105804,
        "lat": 32.501111
      }
    ]
  },
  {
    "adcode": 610000,
    "name": "陕西省",
    "code": "",
    "children": [
      {
        "adcode": 610100,
        "name": "西安市",
        "code": "029",
        "lng": 108.940174,
        "lat": 34.341568
      },
      {
        "adcode": 610200,
        "name": "铜川市",
        "code": "0919",
        "lng": 108.945233,
        "lat": 34.896756
      },
      {
        "adcode": 610300,
        "name": "宝鸡市",
        "code": "0917",
        "lng": 107.237974,
        "lat": 34.361979
      },
      {
        "adcode": 610400,
        "name": "咸阳市",
        "code": "0910",
        "lng": 108.708991,
        "lat": 34.329605
      },
      {
        "adcode": 610500,
        "name": "渭南市",
        "code": "0913",
        "lng": 109.509786,
        "lat": 34.499995
      },
      {
        "adcode": 610600,
        "name": "延安市",
        "code": "0911",
        "lng": 109.489727,
        "lat": 36.585455
      },
      {
        "adcode": 610700,
        "name": "汉中市",
        "code": "0916",
        "lng": 107.023323,
        "lat": 33.06748
      },
      {
        "adcode": 610800,
        "name": "榆林市",
        "code": "0912",
        "lng": 109.734589,
        "lat": 38.28539
      },
      {
        "adcode": 610900,
        "name": "安康市",
        "code": "0915",
        "lng": 109.029022,
        "lat": 32.684714
      },
      {
        "adcode": 611000,
        "name": "商洛市",
        "code": "0914",
        "lng": 109.940477,
        "lat": 33.870422
      }
    ]
  },
  {
    "adcode": 620000,
    "name": "甘肃省",
    "code": "",
    "children": [
      {
        "adcode": 620100,
        "name": "兰州市",
        "code": "0931",
        "lng": 103.834303,
        "lat": 36.061089
      },
      {
        "adcode": 620200,
        "name": "嘉峪关市",
        "code": "1937",
        "lng": 98.289152,
        "lat": 39.77313
      },
      {
        "adcode": 620300,
        "name": "金昌市",
        "code": "0935",
        "lng": 102.188043,
        "lat": 38.520089
      },
      {
        "adcode": 620400,
        "name": "白银市",
        "code": "0943",
        "lng": 104.138559,
        "lat": 36.544756
      },
      {
        "adcode": 620500,
        "name": "天水市",
        "code": "0938",
        "lng": 105.724947,
        "lat": 34.580863
      },
      {
        "adcode": 620600,
        "name": "武威市",
        "code": "1935",
        "lng": 102.638011,
        "lat": 37.928264
      },
      {
        "adcode": 620700,
        "name": "张掖市",
        "code": "0936",
        "lng": 100.449818,
        "lat": 38.925875
      },
      {
        "adcode": 620800,
        "name": "平凉市",
        "code": "0933",
        "lng": 106.66524,
        "lat": 35.543051
      },
      {
        "adcode": 620900,
        "name": "酒泉市",
        "code": "0937",
        "lng": 98.494483,
        "lat": 39.73241
      },
      {
        "adcode": 621000,
        "name": "庆阳市",
        "code": "0934",
        "lng": 107.643631,
        "lat": 35.709077
      },
      {
        "adcode": 621100,
        "name": "定西市",
        "code": "0932",
        "lng": 104.626282,
        "lat": 35.580662
      },
      {
        "adcode": 621200,
        "name": "陇南市",
        "code": "2935",
        "lng": 104.921841,
        "lat": 33.400684
      },
      {
        "adcode": 622900,
        "name": "临夏回族自治州",
        "code": "0930",
        "lng": 103.210538,
        "lat": 35.601182
      },
      {
        "adcode": 623000,
        "name": "甘南藏族自治州",
        "code": "0941",
        "lng": 102.911027,
        "lat": 34.983385
      }
    ]
  },
  {
    "adcode": 630000,
    "name": "青海省",
    "code": "",
    "children": [
      {
        "adcode": 630100,
        "name": "西宁市",
        "code": "0971",
        "lng": 101.778228,
        "lat": 36.617144
      },
      {
        "adcode": 630200,
        "name": "海东市",
        "code": "0972",
        "lng": 102.104287,
        "lat": 36.502039
      },
      {
        "adcode": 632200,
        "name": "海北藏族自治州",
        "code": "0970",
        "lng": 100.900997,
        "lat": 36.954413
      },
      {
        "adcode": 632300,
        "name": "黄南藏族自治州",
        "code": "0973",
        "lng": 102.015248,
        "lat": 35.519548
      },
      {
        "adcode": 632500,
        "name": "海南藏族自治州",
        "code": "0974",
        "lng": 100.620373,
        "lat": 36.286437
      },
      {
        "adcode": 632600,
        "name": "果洛藏族自治州",
        "code": "0975",
        "lng": 100.244808,
        "lat": 34.471431
      },
      {
        "adcode": 632700,
        "name": "玉树藏族自治州",
        "code": "0976",
        "lng": 97.091934,
        "lat": 33.011674
      },
      {
        "adcode": 632800,
        "name": "海西蒙古族藏族自治州",
        "code": "0977",
        "lng": 97.369751,
        "lat": 37.377139
      }
    ]
  },
  {
    "adcode": 640000,
    "name": "宁夏回族自治区",
    "code": "",
    "children": [
      {
        "adcode": 640100,
        "name": "银川市",
        "code": "0951",
        "lng": 106.230909,
        "lat": 38.487193
      },
      {
        "adcode": 640200,
        "name": "石嘴山市",
        "code": "0952",
        "lng": 106.383303,
        "lat": 38.983236
      },
      {
        "adcode": 640300,
        "name": "吴忠市",
        "code": "0953",
        "lng": 106.198393,
        "lat": 37.99746
      },
      {
        "adcode": 640400,
        "name": "固原市",
        "code": "0954",
        "lng": 106.24261,
        "lat": 36.015855
      },
      {
        "adcode": 640500,
        "name": "中卫市",
        "code": "1953",
        "lng": 105.196902,
        "lat": 37.499972
      }
    ]
  },
  {
    "adcode": 650000,
    "name": "新疆维吾尔自治区",
    "code": "",
    "children": [
      {
        "adcode": 650100,
        "name": "乌鲁木齐市",
        "code": "0991",
        "lng": 87.616848,
        "lat": 43.825592
      },
      {
        "adcode": 650200,
        "name": "克拉玛依市",
        "code": "0990",
        "lng": 84.889207,
        "lat": 45.579888
      },
      {
        "adcode": 650400,
        "name": "吐鲁番市",
        "code": "0995",
        "lng": 89.189651,
        "lat": 42.951382
      },
      {
        "adcode": 650500,
        "name": "哈密市",
        "code": "0902",
        "lng": 93.514916,
        "lat": 42.818501
      },
      {
        "adcode": 652300,
        "name": "昌吉回族自治州",
        "code": "0994",
        "lng": 87.308224,
        "lat": 44.011182
      },
      {
        "adcode": 652700,
        "name": "博尔塔拉蒙古自治州",
        "code": "0909",
        "lng": 82.066159,
        "lat": 44.905588
      },
      {
        "adcode": 652800,
        "name": "巴音郭楞蒙古自治州",
        "code": "0996",
        "lng": 86.145298,
        "lat": 41.764115
      },
      {
        "adcode": 652900,
        "name": "阿克苏地区",
        "code": "0997",
        "lng": 80.260605,
        "lat": 41.168779
      },
      {
        "adcode": 653000,
        "name": "克孜勒苏柯尔克孜自治州",
        "code": "0908",
        "lng": 76.167819,
        "lat": 39.714526
      },
      {
        "adcode": 653100,
        "name": "喀什地区",
        "code": "0998",
        "lng": 75.989755,
        "lat": 39.4704
      },
      {
        "adcode": 653200,
        "name": "和田地区",
        "code": "0903",
        "lng": 79.922211,
        "lat": 37.114157
      },
      {
        "adcode": 654000,
        "name": "伊犁哈萨克自治州",
        "code": "0999",
        "lng": 81.324136,
        "lat": 43.916823
      },
      {
        "adcode": 654200,
        "name": "塔城地区",
        "code": "0901",
        "lng": 82.980316,
        "lat": 46.745364
      },
      {
        "adcode": 654300,
        "name": "阿勒泰地区",
        "code": "0906",
        "lng": 88.141253,
        "lat": 47.844924
      }
    ]
  },
  {
    "adcode": 710000,
    "name": "台湾省",
    "code": "1886"
  },
  {
    "adcode": 810000,
    "name": "香港特别行政区",
    "code": "1852"
  },
  {
    "adcode": 820000,
    "name": "澳门特别行政区",
    "code": "1853"
  },
  {
    "adcode": 900000,
    "name": "外国",
    "code": "1900"
  }
]